[
    {
      "Place Name": "Ruby Hall Clinic Wanowrie, Maharashtra, India",
      "Latitude": 18.48587,
      "Longitude": 73.905853
    },
    {
      "Place Name": "Fortis Memorial Research Institute, Gurgaon, India",
      "Latitude": 28.456789,
      "Longitude": 77.072472
    },
    {
      "Place Name": "Ahmedabad Civil Hospital, Ahmedabad, Gujarat, India",
      "Latitude": 23.053967,
      "Longitude": 72.603844
    },
    {
      "Place Name": "Aakrithi Hospital, Vijayawada, Andhra Pradesh, India",
      "Latitude": 16.511965,
      "Longitude": 80.633163
    },
    {
      "Place Name": "VOC Port Trust Hospital, Muttayyapuram, Tamil Nadu , India",
      "Latitude": 8.749402,
      "Longitude": 78.168137
    },
    {
      "Place Name": "Vihar Hospital, Anand, Gujarat, India",
      "Latitude": 22.554609,
      "Longitude": 72.967361
    },
    {
      "Place Name": "Advanced Centre for Eyes, Kitchlu Nagar, Ludhiana, Punjab, India",
      "Latitude": 30.912411,
      "Longitude": 75.819412
    },
    {
      "Place Name": "Delhi Heart Hospital, Jagriti Enclave, Anand Vihar, Delhi, India",
      "Latitude": 28.653229,
      "Longitude": 77.308601
    },
    {
      "Place Name": "Nighasan Hospital, Nighasan, Uttar Pradesh, India",
      "Latitude": 28.231674,
      "Longitude": 80.862534
    },
    {
      "Place Name": "Apple Hospital, Surat, Gujarat, India",
      "Latitude": 21.182947,
      "Longitude": 72.831581
    },
    {
      "Place Name": "Primary Health Centre, Gejjalagere, Karnataka, India",
      "Latitude": 12.571047,
      "Longitude": 77.001183
    },
    {
      "Place Name": "32 Smile Stone Dental Clinic, New Delhi, Delhi, India",
      "Latitude": 28.575552,
      "Longitude": 77.262192
    },
    {
      "Place Name": "Veterinary Polyclinic, Hoshiarpur, Punjab, India",
      "Latitude": 31.52462,
      "Longitude": 75.902008
    },
    {
      "Place Name": "Hashmika Child Clinic, Visakhapatnam, Andhra Pradesh, India",
      "Latitude": 17.733288,
      "Longitude": 83.275429
    },
    {
      "Place Name": "Padmini Nursing Home, Chetpet, Chennai, Tamil Nadu, India",
      "Latitude": 13.07279,
      "Longitude": 80.234421
    },
    {
      "Place Name": "Subham Diagnostic & Polyclinic, Rajhati, West Bengal, India",
      "Latitude": 22.674788,
      "Longitude": 87.827484
    },
    {
      "Place Name": "Smile Art Dental Clinic, Ravet, Pimpri-Chinchwad, Maharashtra, India",
      "Latitude": 18.643318,
      "Longitude": 73.756042
    },
    {
      "Place Name": "Asilo Hospital, Mapusa, Goa, India",
      "Latitude": 15.589379,
      "Longitude": 73.816574
    },
    {
      "Place Name": "General Hospital, Jangipara, Hooghly, West Bangali, India",
      "Latitude": 22.742229,
      "Longitude": 88.05146
    },
    {
      "Place Name": "Western India Institute Of Neurosciences, Nagala Park, Kolhapur, Maharashtra, India",
      "Latitude": 16.709822,
      "Longitude": 74.227463
    },
    {
      "Place Name": "MGM Hospital and Research Center, Katni, Madhya Pradesh, India",
      "Latitude": 23.830975,
      "Longitude": 80.40712
    },
    {
      "Place Name": "Primary Health Care Center, Pataka, Athmallik, Odisha, India",
      "Latitude": 20.651484,
      "Longitude": 84.629814
    },
    {
      "Place Name": "Jyotirmayee Medicine Store, Pataka, Athmallik, Odisha, India",
      "Latitude": 20.650694,
      "Longitude": 84.631775
    },
    {
      "Place Name": "Androbest Andrology & Urology Center, Sai Nagar, LB Nagar, Hyderabad, Telangana, India",
      "Latitude": 17.357861,
      "Longitude": 78.557442
    },
    {
      "Place Name": "ADORN Cosmetic Clinic, Ahmedabad, Gujarat, India",
      "Latitude": 23.02557,
      "Longitude": 72.527458
    },
    {
      "Place Name": "Vignesh Hospital, Porur, Ramapuram, Chennai, Tamil Nadu, India",
      "Latitude": 13.030947,
      "Longitude": 80.171585
    },
    {
      "Place Name": "Chennai Jayanth Acupuncture Hospital, Anna Nagar, Chennai, Tamil Nadu, India",
      "Latitude": 13.095658,
      "Longitude": 80.206116
    },
    {
      "Place Name": "Srinivas Priya Hospital Pvt Ltd, Patel Road, Perambur, Chennai, India",
      "Latitude": 13.109593,
      "Longitude": 80.246666
    },
    {
      "Place Name": "RELAX Hospital, Cuttack, Orrisa, Odisha, India",
      "Latitude": 20.457838,
      "Longitude": 85.871536
    },
    {
      "Place Name": "Governmental Hospital, Bachannapet, Telangana, India",
      "Latitude": 17.786711,
      "Longitude": 79.02697
    },
    {
      "Place Name": "Governmental Hospital of Thalaivasal, Thalaivasal, Tamil Nadu, India",
      "Latitude": 11.578299,
      "Longitude": 78.753654
    },
    {
      "Place Name": "Dr deepa shama's DEEP Hospital, Hathras, Uttar Pradesh, India",
      "Latitude": 27.597265,
      "Longitude": 78.045441
    },
    {
      "Place Name": "Aark Foundation, Donje Phata, Pune, Maharashtra, India",
      "Latitude": 18.399286,
      "Longitude": 73.769058
    },
    {
      "Place Name": "Sant Blood Bank, Jhansi, Uttar Pradesh, India",
      "Latitude": 25.458599,
      "Longitude": 78.615517
    },
    {
      "Place Name": "Riddhi Siddhi CHS, Borivali West, Mumbai, Maharashtra, India",
      "Latitude": 19.22765,
      "Longitude": 72.840012
    },
    {
      "Place Name": "MAURYA Eye Care Center, Manikpur, Uttar Pradesh, India",
      "Latitude": 25.766827,
      "Longitude": 81.414467
    },
    {
      "Place Name": "Dental Panacea, Faridabad, Hayrana, India",
      "Latitude": 28.386002,
      "Longitude": 77.307678
    },
    {
      "Place Name": "Srirangam Government Hospital, Tiruchirappalli, Tamil Nadu, India",
      "Latitude": 10.857012,
      "Longitude": 78.691162
    },
    {
      "Place Name": "Nithya Homoeo Pharmacy, Puducherry, India",
      "Latitude": 11.929894,
      "Longitude": 79.824852
    },
    {
      "Place Name": "Bairabi hospital, Bairabi, Mizoram, India",
      "Latitude": 24.184324,
      "Longitude": 92.533638
    },
    {
      "Place Name": "Khuangpuilam Clinic, Kolasib, Mizoram, India",
      "Latitude": 24.209656,
      "Longitude": 92.679642
    },
    {
      "Place Name": "Nityanand Hospital, Katraj, Pune, Maharashtra, India",
      "Latitude": 18.457527,
      "Longitude": 73.867668
    },
    {
      "Place Name": "Hojai Civil Hospital, Hojai, Assam, India",
      "Latitude": 26.001802,
      "Longitude": 92.848373
    },
    {
      "Place Name": "Apollo BSR Hospital, Bhilai Nagar, Chhattisgarh, India",
      "Latitude": 21.216276,
      "Longitude": 81.323608
    },
    {
      "Place Name": "Usha Vision Care, Srirampura, Bengaluru, Karnataka, India",
      "Latitude": 12.99609,
      "Longitude": 77.569672
    },
    {
      "Place Name": "Keshav Madhav Blood Bank, Bareilly, Uttar Pradesh, India",
      "Latitude": 28.36718,
      "Longitude": 79.430153
    },
    {
      "Place Name": "Mukta Dental Clinic, Shahid Bhagat Singh Nagar, Rajasthan, India",
      "Latitude": 24.55899,
      "Longitude": 73.722801
    },
    {
      "Place Name": "MJM Hospital, Shivajinagar, Pune, Maharashtra, India",
      "Latitude": 18.524338,
      "Longitude": 73.843887
    },
    {
      "Place Name": "Sarthak Manav Kusthashram, Jhotwara, Jaipur, Rajasthan, India",
      "Latitude": 26.940351,
      "Longitude": 75.769493
    },
    {
      "Place Name": "Janta Clinic, Sector 3, Jaipur, Rajasthan, India",
      "Latitude": 26.889633,
      "Longitude": 75.839554
    },
    {
      "Place Name": "Pashu Hospital Maheshwar, Maheshwar, Madhya Pradesh, India",
      "Latitude": 22.179298,
      "Longitude": 75.586754
    },
    {
      "Place Name": "Sagar Hospital, KumaraSwamy layout, Bangalore, Karnataka, India",
      "Latitude": 12.90795,
      "Longitude": 77.565063
    },
    {
      "Place Name": "Dr.Shruthi and Dr.Rajesh Patil, Rajatagiri, Dharwad, Karnataka, India",
      "Latitude": 15.437003,
      "Longitude": 75.01506
    },
    {
      "Place Name": "UHP District General Hospital, Armavti, Maharashtra, India",
      "Latitude": 20.933424,
      "Longitude": 77.761139
    },
    {
      "Place Name": "MGM Hospital, CBD Belapur, Mumbai, Maharashtra, India",
      "Latitude": 19.025806,
      "Longitude": 73.04155
    },
    {
      "Place Name": "Pramathana Dental Care, Ideal Homes TWP, Bengaluru, Karnataka, India",
      "Latitude": 12.923236,
      "Longitude": 77.518456
    },
    {
      "Place Name": "Joshi Hospital, Dabhade, Pune, Maharashtra, India",
      "Latitude": 18.970409,
      "Longitude": 76.753838
    },
    {
      "Place Name": "Rural Hospital Solankur, Solankur, Maharashtra, India",
      "Latitude": 16.413506,
      "Longitude": 74.050575
    },
    {
      "Place Name": "32 Gems Dental Care, Dosarka, Punjab, India",
      "Latitude": 31.697235,
      "Longitude": 75.788933
    },
    {
      "Place Name": "Subham hospital, Mendarda, Sardarbag, Junagadh, Gujarat, India",
      "Latitude": 21.323082,
      "Longitude": 70.441826
    },
    {
      "Place Name": "Hiranandani Hospital, Thane West, Mumbai, Maharashtra",
      "Latitude": 19.252562,
      "Longitude": 72.980057
    },
    {
      "Place Name": "Sadar Hospital, Jamshedpur, India",
      "Latitude": 22.758537,
      "Longitude": 86.201302
    },
    {
      "Place Name": "Fairbank James Friendship memorial Hospital, Ahmednagar, Maharashtra, India",
      "Latitude": 19.092508,
      "Longitude": 74.749596
    },
    {
      "Place Name": "Medicare Skin & Cosmetic Clinic, Jayanagar, Bangalore, India",
      "Latitude": 12.906529,
      "Longitude": 77.585831
    },
    {
      "Place Name": "Banglore Hospital, Bengaluru, Karnataka, India",
      "Latitude": 13.006752,
      "Longitude": 77.561737
    },
    {
      "Place Name": "Indus Hospital, Sector 60, Punjab, India",
      "Latitude": 30.705317,
      "Longitude": 76.725052
    },
    {
      "Place Name": "Raipur, Uttarakhand, India",
      "Latitude": 30.3167,
      "Longitude": 78.099998
    },
    {
      "Place Name": "Tiruvalla Medical Mission Hospital, Thiruvalla, Kerala, India",
      "Latitude": 9.393924,
      "Longitude": 76.578423
    }
   ]